{"type":"FeatureCollection","features":[{"type":"Feature","properties":{"marker-color":"#230080","marker-size":"medium","marker-symbol":"","name":"Chinese Consolidated Benevolent Association of New England","address":"84 - 90 Tyler Street"},"geometry":{"type":"Point","coordinates":[-71.061267,42.348851]}},{"type":"Feature","properties":{"marker-color":"#230080","marker-size":"medium","marker-symbol":"","name":"Chinese Consolidated Benevolent Association of New England","address":"50 Herald Street"},"geometry":{"type":"Point","coordinates":[-71.065032,42.346344]}},{"type":"Feature","properties":{"marker-color":"#230080","marker-size":"medium","marker-symbol":"","name":"Chee Kong Tong","address":"6 Tyler Street"},"geometry":{"type":"Point","coordinates":[-71.060465,42.351105]}},{"type":"Feature","properties":{"marker-color":"#230080","marker-size":"medium","marker-symbol":"","name":"Chinese Merchants Association","address":"9-13 Ping On Street"},"geometry":{"type":"Point","coordinates":[-71.060155,42.3525]}},{"type":"Feature","properties":{"marker-color":"#230080","marker-size":"medium","marker-symbol":"","name":"Chinese Merchants Association","address":"77-85 Tyler Street"},"geometry":{"type":"Point","coordinates":[-71.06166,42.348993]}},{"type":"Feature","properties":{"marker-color":"#230080","marker-size":"medium","marker-symbol":"","name":"Chinese Merchants Association","address":"57 Beach Street"},"geometry":{"type":"Point","coordinates":[-71.06047,42.351323]}},{"type":"Feature","properties":{"marker-color":"#230080","marker-size":"medium","marker-symbol":"","name":"Chinese Merchants Association","address":"20-30 Oxford Street"},"geometry":{"type":"Point","coordinates":[-71.060258,42.351571]}},{"type":"Feature","properties":{"marker-color":"#230080","marker-size":"medium","marker-symbol":"","name":"Chinese Merchants Association","address":"20 Hudson Street"},"geometry":{"type":"Point","coordinates":[-71.05995,42.350413]}},{"type":"Feature","properties":{"marker-color":"#230080","marker-size":"medium","marker-symbol":"","name":"Chinese Merchants Association","address":"2 Tyler Street"},"geometry":{"type":"Point","coordinates":[-71.060376,42.351219]}},{"type":"Feature","properties":{"marker-color":"#230080","marker-size":"medium","marker-symbol":"","name":"Chinese Merchants Association","address":"61-63 Beach Street"},"geometry":{"type":"Point","coordinates":[-71.060183,42.351122]}},{"type":"Feature","properties":{"marker-color":"#230080","marker-size":"medium","marker-symbol":"","name":"Fung Luen Association of New England","address":"3 Hudson Street"},"geometry":{"type":"Point","coordinates":[-71.059939,42.351113]}},{"type":"Feature","properties":{"marker-color":"#230080","marker-size":"medium","marker-symbol":"","name":"Gee How Oak Tin Association of New England","address":"77 Harrison Avenue"},"geometry":{"type":"Point","coordinates":[-71.061602,42.35107]}},{"type":"Feature","properties":{"marker-color":"#230080","marker-size":"medium","marker-symbol":"","name":"Gee How Oak Tin Association of New England","address":"23-27 Tyler Street"},"geometry":{"type":"Point","coordinates":[-71.060927,42.350674]}},{"type":"Feature","properties":{"marker-color":"#230080","marker-size":"medium","marker-symbol":"","name":"Gee How Oak Tin Association of New England","address":"79 Hudson Street"},"geometry":{"type":"Point","coordinates":[-71.06097,42.348944]}},{"type":"Feature","properties":{"marker-color":"#230080","marker-size":"medium","marker-symbol":"","name":"Goon Shee Family Association","address":"10 Oxford Plaza"},"geometry":{"type":"Point","coordinates":[-71.060795,42.351691]}},{"type":"Feature","properties":{"marker-color":"#230080","marker-size":"medium","marker-symbol":"","name":"Lee On Dong Association","address":"10 Tyler Street"},"geometry":{"type":"Point","coordinates":[-71.060463,42.350979]}},{"type":"Feature","properties":{"marker-color":"#230080","marker-size":"medium","marker-symbol":"","name":"Lee On Dong Association","address":"50 Beach Street"},"geometry":{"type":"Point","coordinates":[-71.06071,42.351559]}},{"type":"Feature","properties":{"marker-color":"#230080","marker-size":"medium","marker-symbol":"","name":"Leung Family Association","address":"6 Johnny Court"},"geometry":{"type":"Point","coordinates":[-71.063222,42.347862]}},{"type":"Feature","properties":{"marker-color":"#230080","marker-size":"medium","marker-symbol":"","name":"Moy Shee Family Association","address":"13 Hudson Street"},"geometry":{"type":"Point","coordinates":[-71.060204,42.350799]}},{"type":"Feature","properties":{"marker-color":"#230080","marker-size":"medium","marker-symbol":"","name":"Ng Family Association","address":"22 Tyler Street"},"geometry":{"type":"Point","coordinates":[-71.0606,42.350634]}},{"type":"Feature","properties":{"marker-color":"#230080","marker-size":"medium","marker-symbol":"","name":"Ni Lun Welfare Association","address":"68 Tyler Street"},"geometry":{"type":"Point","coordinates":[-71.061297,42.349345]}},{"type":"Feature","properties":{"marker-color":"#230080","marker-size":"medium","marker-symbol":"","name":"Ni Lun Welfare Association","address":"57-59 Harvard Street"},"geometry":{"type":"Point","coordinates":[-71.061047,42.349288]}},{"type":"Feature","properties":{"marker-color":"#230080","marker-size":"medium","marker-symbol":"","name":"Ni Lun Welfare Association","address":"72 Tyler Street"},"geometry":{"type":"Point","coordinates":[-71.061188,42.349149]}},{"type":"Feature","properties":{"marker-color":"#230080","marker-size":"medium","marker-symbol":"","name":"Wong Family Association of New England","address":"70-72 Beach Street"},"geometry":{"type":"Point","coordinates":[-71.059815,42.351347]}},{"type":"Feature","properties":{"marker-color":"#230080","marker-size":"medium","marker-symbol":"","name":"Wong Family Association of New England","address":"4 Tyler Street"},"geometry":{"type":"Point","coordinates":[-71.060441,42.351168]}}]}