{"type":"FeatureCollection","features":[{"type":"Feature","properties":{"marker-color":"#00912a","marker-size":"medium","marker-symbol":"","name":"American Chinese Christian Educational and Social Services","address":"244 Harrison Avenue"},"geometry":{"type":"Point","coordinates":[-71.062064,42.347493]}},{"type":"Feature","properties":{"marker-color":"#00912a","marker-size":"medium","marker-symbol":"","name":"Chinese Merchants Association","address":"20 Hudson Street"},"geometry":{"type":"Point","coordinates":[-71.05995,42.350413]}},{"type":"Feature","properties":{"marker-color":"#00912a","marker-size":"medium","marker-symbol":"","name":"Asian Community Development Association","address":"38 Oak Street"},"geometry":{"type":"Point","coordinates":[-71.062837,42.348266]}},{"type":"Feature","properties":{"marker-color":"#00912a","marker-size":"medium","marker-symbol":"","name":"Boston Asian Youth Essential Services","address":"199 Harrison Avenue"},"geometry":{"type":"Point","coordinates":[-71.062614,42.348358]}},{"type":"Feature","properties":{"marker-color":"#00912a","marker-size":"medium","marker-symbol":"","name":"Wang YMCA Chinatown","address":"8 Oak Street"},"geometry":{"type":"Point","coordinates":[-71.063545,42.348365]}},{"type":"Feature","properties":{"marker-color":"#00912a","marker-size":"medium","marker-symbol":"","name":"Chinese Historical Society of New England","address":"2 Boylston Street G2"},"geometry":{"type":"Point","coordinates":[-71.063119,42.352091]}},{"type":"Feature","properties":{"marker-color":"#00912a","marker-size":"medium","marker-symbol":"","name":"Chinese Women Association","address":"54 Beach Street"},"geometry":{"type":"Point","coordinates":[-71.060586,42.3515]}},{"type":"Feature","properties":{"marker-color":"#00912a","marker-size":"medium","marker-symbol":"","name":"Chinese Golden Age Center","address":"5 Oak Street"},"geometry":{"type":"Point","coordinates":[-71.063551,42.348338]}},{"type":"Feature","properties":{"marker-color":"#00912a","marker-size":"medium","marker-symbol":"","name":"Boston Chinatown Neighborhood Center","address":"38 Ash Street"},"geometry":{"type":"Point","coordinates":[-71.063394,42.348424]}},{"type":"Feature","properties":{"marker-color":"#00912a","marker-size":"medium","marker-symbol":"","name":"Asian American Civic Association, Kwong Kow Chinese School","address":"87 Tyler Street"},"geometry":{"type":"Point","coordinates":[-71.061741,42.348824]}},{"type":"Feature","properties":{"marker-color":"#00912a","marker-size":"medium","marker-symbol":"","name":"Chinese Economic Development Corporation","address":"31 Beach Street"},"geometry":{"type":"Point","coordinates":[-71.061539,42.351275]}},{"type":"Feature","properties":{"marker-color":"#00912a","marker-size":"medium","marker-symbol":"","name":"Castle Square Tenants Organization","address":"476 Tremont Street"},"geometry":{"type":"Point","coordinates":[-71.068901,42.346129]}},{"type":"Feature","properties":{"marker-color":"#00912a","marker-size":"medium","marker-symbol":"","name":"Hong Lok Housing","address":"25-31 Essex Street"},"geometry":{"type":"Point","coordinates":[-71.061824,42.352276]}},{"type":"Feature","properties":{"marker-color":"#00912a","marker-size":"medium","marker-symbol":"","name":"Chinese Progressive Association","address":"28 Ash Street"},"geometry":{"type":"Point","coordinates":[-71.063256,42.348653]}},{"type":"Feature","properties":{"marker-color":"#00912a","marker-size":"medium","marker-symbol":"","name":"Chinese Consolidated Benevolent Association of New England","address":"90 Tyler Street"},"geometry":{"type":"Point","coordinates":[-71.061267,42.348851]}},{"type":"Feature","properties":{"marker-color":"#00912a","marker-size":"medium","marker-symbol":"","name":"Boston Chinese Evangelical Church","address":"249 Harrison Avenue"},"geometry":{"type":"Point","coordinates":[-71.063244,42.3473]}},{"type":"Feature","properties":{"marker-color":"#00912a","marker-size":"medium","marker-symbol":"","name":"South Cove Community Health Center, Quincy Elementary School, Boston Community Center","address":"885 Washington Street"},"geometry":{"type":"Point","coordinates":[-71.064984,42.34799]}},{"type":"Feature","properties":{"marker-color":"#00912a","marker-size":"medium","marker-symbol":"","name":"Chinese Free Masons","address":"6 Tyler Street"},"geometry":{"type":"Point","coordinates":[-71.060465,42.351105]}},{"type":"Feature","properties":{"marker-color":"#00912a","marker-size":"medium","marker-symbol":"","name":"Mass Pike Tower","address":"330 Tremont Street"},"geometry":{"type":"Point","coordinates":[-71.065887,42.348646]}},{"type":"Feature","properties":{"marker-color":"#00912a","marker-size":"medium","marker-symbol":"","name":"Quincy Upper School ","address":"900 Washington Street"},"geometry":{"type":"Point","coordinates":[-71.063896,42.347583]}},{"type":"Feature","properties":{"marker-color":"#00912a","marker-size":"medium","marker-symbol":"","name":"MAP for Health","address":"322 Tremont Street"},"geometry":{"type":"Point","coordinates":[-71.066334,42.348575]}}]}