{"type":"FeatureCollection","features":[{"type":"Feature","properties":{"marker-color":"#d200c8","marker-size":"medium","address":"82 Essex Street","detail":"Ownership turnover","unit":55,"name":"Eviction Site"},"geometry":{"type":"Point","coordinates":[-71.060227,42.35266]}},{"type":"Feature","properties":{"marker-color":"#d200c8","marker-size":"medium","address":"22 Edinboro Street","detail":"Rent increase, several times","unit":12,"name":"Eviction Site"},"geometry":{"type":"Point","coordinates":[-71.059746,42.352157]}},{"type":"Feature","properties":{"marker-color":"#d200c8","marker-size":"medium","address":"37 Harrison Avenue","detail":"Condo conversion","unit":4,"name":"Eviction Site"},"geometry":{"type":"Point","coordinates":[-71.061203,42.351571]}},{"type":"Feature","properties":{"marker-color":"#d200c8","marker-size":"medium","address":"45 Beach Street","detail":"Condo conversion, was mostly commercial tenants","unit":"No information","name":"Eviction Site"},"geometry":{"type":"Point","coordinates":[-71.060858,42.351247]}},{"type":"Feature","properties":{"marker-color":"#d200c8","marker-size":"medium","address":"26 Harrison Avenue","detail":"No information","unit":40,"name":"Eviction Site"},"geometry":{"type":"Point","coordinates":[-71.061236,42.351998]}},{"type":"Feature","properties":{"marker-color":"#d200c8","marker-size":"medium","address":"16 Beach Street","detail":"Owner falsified subsidy termination","unit":"No information","name":"Eviction Site"},"geometry":{"type":"Point","coordinates":[-71.06195,42.351729]}},{"type":"Feature","properties":{"marker-color":"#d200c8","marker-size":"medium","address":"2 Johnny Court","detail":"Rent increase and ownership turnover","unit":4,"name":"Eviction Site"},"geometry":{"type":"Point","coordinates":[-71.063072,42.3478]}},{"type":"Feature","properties":{"marker-color":"#d200c8","marker-size":"medium","address":"6 Johnny Court","detail":"Ownership turnover","unit":"No information","name":"Eviction Site"},"geometry":{"type":"Point","coordinates":[-71.063222,42.347862]}},{"type":"Feature","properties":{"marker-color":"#d200c8","marker-size":"medium","address":"65 Beach Street","detail":"Rent increase and eviction","unit":"No information","name":"Eviction Site"},"geometry":{"type":"Point","coordinates":[-71.060111,42.35111]}},{"type":"Feature","properties":{"marker-color":"#d200c8","marker-size":"medium","address":"26 Melrose Street","detail":"Ownership turnover","unit":4,"name":"Eviction Site"},"geometry":{"type":"Point","coordinates":[-71.06808,42.349154]}},{"type":"Feature","properties":{"marker-color":"#d200c8","marker-size":"medium","address":"101 Hudson Street","detail":"Ownership turnover","unit":"No information","name":"Eviction Site"},"geometry":{"type":"Point","coordinates":[-71.061249,42.348298]}},{"type":"Feature","properties":{"marker-color":"#d200c8","marker-size":"medium","address":"103 Hudson Street","detail":"Ownership turnover","unit":"No information","name":"Eviction Site"},"geometry":{"type":"Point","coordinates":[-71.061139,42.348101]}},{"type":"Feature","properties":{"marker-color":"#d200c8","marker-size":"medium","address":"6 Knapp Street","detail":"No information","unit":"No information","name":"Eviction Site"},"geometry":{"type":"Point","coordinates":[-71.062157,42.351167]}},{"type":"Feature","properties":{"marker-color":"#d200c8","marker-size":"medium","address":"9 Oxford Street","detail":"No information","unit":"No information","name":"Eviction Site"},"geometry":{"type":"Point","coordinates":[-71.060601,42.35239]}},{"type":"Feature","properties":{"marker-color":"#d200c8","marker-size":"medium","address":"214 Harrison Avenue","detail":"Ownership turnover","unit":4,"name":"Eviction Site"},"geometry":{"type":"Point","coordinates":[-71.06254,42.347989]}},{"type":"Feature","properties":{"marker-color":"#d200c8","marker-size":"medium","address":"34 Oak Street","detail":"Ownership turnover","unit":4,"name":"Eviction Site"},"geometry":{"type":"Point","coordinates":[-71.062995,42.348293]}},{"type":"Feature","properties":{"marker-color":"#d200c8","marker-size":"medium","address":"616 Tremont Street","detail":"Ownership turnover","unit":4,"name":"Eviction Site"},"geometry":{"type":"Point","coordinates":[-71.073867,42.342449]}},{"type":"Feature","properties":{"marker-color":"#d200c8","marker-size":"medium","address":"407 Harrison Avenue","detail":"No information","unit":"No information","name":"Eviction Site"},"geometry":{"type":"Point","coordinates":[-71.064817,42.343306]}},{"type":"Feature","properties":{"marker-color":"#d200c8","marker-size":"medium","address":"3 Tyler Street","detail":"No information","unit":"No information","name":"Eviction Site"},"geometry":{"type":"Point","coordinates":[-71.060578,42.351258]}},{"type":"Feature","properties":{"marker-color":"#d200c8","marker-size":"medium","address":"5 Oxford Plaza","detail":"No information","unit":"No information","name":"Eviction Site"},"geometry":{"type":"Point","coordinates":[-71.06087,42.351925]}},{"type":"Feature","properties":{"marker-color":"#d200c8","marker-size":"medium","address":"19 Pine Street","detail":"No information","unit":"No information","name":"Eviction Site"},"geometry":{"type":"Point","coordinates":[-71.063913,42.34774]}},{"type":"Feature","properties":{"marker-color":"#d200c8","marker-size":"medium","address":"87 Harrison Avenue","detail":"No information","unit":"No information","name":"Eviction Site"},"geometry":{"type":"Point","coordinates":[-71.061462,42.350799]}},{"type":"Feature","properties":{"marker-color":"#d200c8","marker-size":"medium","address":"75 Tyler Street","detail":"Turned into condos","unit":4,"name":"Eviction Site"},"geometry":{"type":"Point","coordinates":[-71.061395,42.349201]}},{"type":"Feature","properties":{"marker-color":"#d200c8","marker-size":"medium","address":"3 Johnny Court","detail":"No information","unit":4,"name":"Eviction Site"},"geometry":{"type":"Point","coordinates":[-71.063021,42.348027]}},{"type":"Feature","properties":{"marker-color":"#d200c8","marker-size":"medium","address":"7 Johnny Court","detail":"No information","unit":4,"name":"Eviction Site"},"geometry":{"type":"Point","coordinates":[-71.063167,42.34806]}},{"type":"Feature","properties":{"marker-color":"#d200c8","marker-size":"medium","address":"231 Harrison Avenue","detail":"No information","unit":"No information","name":"Eviction Site"},"geometry":{"type":"Point","coordinates":[-71.063012,42.347546]}},{"type":"Feature","properties":{"marker-color":"#d200c8","marker-size":"medium","address":"223 Harrison Avenue","detail":"No information","unit":"No information","name":"Eviction Site"},"geometry":{"type":"Point","coordinates":[-71.062905,42.34779]}},{"type":"Feature","properties":{"marker-color":"#d200c8","marker-size":"medium","address":"33 Oxford Plaza","detail":"No information","unit":"No information","name":"Eviction Site"},"geometry":{"type":"Point","coordinates":[-71.060859,42.352028]}},{"type":"Feature","properties":{"marker-color":"#d200c8","marker-size":"medium","address":"8 Maple Plaza","detail":"No information","unit":"No information","name":"Eviction Site"},"geometry":{"type":"Point","coordinates":[-71.063306,42.348271]}},{"type":"Feature","properties":{"marker-color":"#d200c8","marker-size":"medium","address":"279 Shawmut Avenue","detail":"No information","unit":"No information","name":"Eviction Site"},"geometry":{"type":"Point","coordinates":[-71.069555,42.343002]}},{"type":"Feature","properties":{"marker-color":"#d200c8","marker-size":"medium","address":"11 Maple Plaza","detail":"No information","unit":"No information","name":"Eviction Site"},"geometry":{"type":"Point","coordinates":[-71.063268,42.348272]}},{"type":"Feature","properties":{"marker-color":"#d200c8","marker-size":"medium","address":"62 Beach Street","detail":"No information","unit":"No information","name":"Eviction Site"},"geometry":{"type":"Point","coordinates":[-71.060175,42.351288]}},{"type":"Feature","properties":{"marker-color":"#d200c8","marker-size":"medium","address":"46 Beach Street","detail":"Rent increase","unit":50,"name":"Eviction Site"},"geometry":{"type":"Point","coordinates":[-71.060879,42.351523]}}]}