{"type":"FeatureCollection","features":[{"type":"Feature","properties":{"marker-color":"#7e7e7e","marker-size":"medium","marker-symbol":"","kind":"Rental Residential and Retail","detail":"240 Luxury Units","address":"120 Kingston Street","year":"2015","name":"The Radion"},"geometry":{"type":"Point","coordinates":[-71.059038,42.352243]}},{"type":"Feature","properties":{"marker-color":"#7e7e7e","marker-size":"medium","marker-symbol":"","name":"Millennium Place","kind":"Residential","detail":"256 Luxury Units","year":"2013","address":"580 Washington Street"},"geometry":{"type":"Point","coordinates":[-71.062351,42.35328]}},{"type":"Feature","properties":{"marker-color":"#7e7e7e","marker-size":"medium","marker-symbol":"","name":"The Metropolitan","kind":"Residential","detail":"284 Luxury Units","year":2004,"address":"1 Nassau Street"},"geometry":{"type":"Point","coordinates":[-71.062941,42.34858]}},{"type":"Feature","properties":{"marker-color":"#7e7e7e","marker-size":"medium","marker-symbol":"","name":"The Hamilton Company","kind":"Residential","detail":"30 Luxury Units","year":2004,"address":"38-40 Boylston Street"},"geometry":{"type":"Point","coordinates":[-71.063801,42.352164]}},{"type":"Feature","properties":{"marker-color":"#7e7e7e","marker-size":"medium","marker-symbol":"","name":"The Hamilton Company","kind":"Residential","detail":"18 Luxury Units","year":2004,"address":"32 Boylston Street"},"geometry":{"type":"Point","coordinates":[-71.063685,42.352209]}},{"type":"Feature","properties":{"marker-color":"#7e7e7e","marker-size":"medium","marker-symbol":"","name":"Archstone Chinatown","kind":"Residentail","detail":"419 Luxury Units","year":2007,"address":"660 Washington Street"},"geometry":{"type":"Point","coordinates":[-71.06243,42.351841]}},{"type":"Feature","properties":{"marker-color":"#7e7e7e","marker-size":"medium","marker-symbol":"","name":"The Lafayette Lofts","kind":"Residential","detail":"42 Luxury Units","year":2006,"address":"88 Kingston Street"},"geometry":{"type":"Point","coordinates":[-71.05924,42.352656]}},{"type":"Feature","properties":{"marker-color":"#7e7e7e","marker-size":"medium","marker-symbol":"","name":"Lincoln  Lofts","kind":"Residential","detail":"87 Luxury Units","year":2006,"address":"70 Lincoln Street"},"geometry":{"type":"Point","coordinates":[-71.057901,42.352102]}},{"type":"Feature","properties":{"marker-color":"#7e7e7e","marker-size":"medium","marker-symbol":"","name":"Lofts Avana","kind":"Residential","detail":"32 Luxury Units","year":2008,"address":"46 Beach Street"},"geometry":{"type":"Point","coordinates":[-71.060879,42.351523]}},{"type":"Feature","properties":{"marker-color":"#7e7e7e","marker-size":"medium","marker-symbol":"","name":"Oak Terrace","kind":"Residential","detail":"88 Luxury Units","year":1994,"address":"888 Washington Street"},"geometry":{"type":"Point","coordinates":[-71.064002,42.348069]}},{"type":"Feature","properties":{"marker-color":"#7e7e7e","marker-size":"medium","marker-symbol":"","name":"The Tower One Green Way","kind":"Residential","detail":"363 Luxury Units","year":2014,"address":"99 Kneeland Street"},"geometry":{"type":"Point","coordinates":[-71.060264,42.349606]}},{"type":"Feature","properties":{"marker-color":"#7e7e7e","marker-size":"medium","marker-symbol":"","name":"Ava Theater District","kind":"Residential","detail":"398 Luxury Units","year":2015,"address":"45 Stuart Street"},"geometry":{"type":"Point","coordinates":[-71.063913,42.351384]}},{"type":"Feature","properties":{"marker-color":"#7e7e7e","marker-size":"medium","marker-symbol":"","name":"The Kensington ","kind":"Residential","detail":"381 Luxury Units","year":2013,"address":"665 Washington Street"},"geometry":{"type":"Point","coordinates":[-71.063197,42.351786]}},{"type":"Feature","properties":{"marker-color":"#7e7e7e","marker-size":"medium","marker-symbol":"","name":"Ink Block Apartments 1-2-3","kind":"Residential","detail":"315 Luxury Units","year":2015,"address":"300 Harrison Avenue"},"geometry":{"type":"Point","coordinates":[-71.062877,42.345736]}},{"type":"Feature","properties":{"marker-color":"#7e7e7e","marker-size":"medium","marker-symbol":"","name":"Ink Block Apartments 1-2-3","kind":"Residential","detail":"315 Luxury Units","year":2015,"address":"300 Harrison Avenue"},"geometry":{"type":"Point","coordinates":[-71.06335759162901,42.34506487440754]}},{"type":"Feature","properties":{"marker-color":"#7e7e7e","marker-size":"medium","marker-symbol":"","name":"The Sepia Condominium","kind":"Residential","detail":"160 Luxury Units","year":2015,"address":"410 Harrison Avenue"},"geometry":{"type":"Point","coordinates":[-71.06332540512085,42.344573231143784]}},{"type":"Feature","properties":{"marker-color":"#7e7e7e","marker-size":"medium","marker-symbol":"","name":"Troy Boston","kind":"Residential","detail":"378 Luxury Units","year":2015,"address":" 55 Traveler Street"},"geometry":{"type":"Point","coordinates":[-71.06262803077698,42.34374853058377]}},{"type":"Feature","properties":{"marker-color":"#7e7e7e","marker-size":"medium","marker-symbol":"","name":"Tufts Medical Center Expansion","kind":"Institutional ","detail":"Education","year":"2012-2022","address":"800 Washington Street"},"geometry":{"type":"Point","coordinates":[-71.0632073879242,42.34950931361615]}}]}